<?xml version="1.0" encoding="UTF-8"?>
<kml xmlns="http://www.opengis.net/kml/2.2">
<Document>
<name>Convenience Stores in York, PA</name>
<Placemark>
<name>83 TRAVEL PLAZA</name>
<description>
<![CDATA[
<p>5208 N Susquehanna Trl <br>York, PA 17406 <br>(717) 266-3630 <br><a href="http://convenience-stores.cmac.ws/83-travel-plaza/81325/">More Info</a></p>
]]>
</description>
<Point>
<coordinates>-76.766281,40.078209</coordinates>
</Point>
</Placemark>
<Placemark>
<name>A &amp; B African Caribbean Food Market</name>
<description>
<![CDATA[
<p>1132 N George St <br>York, PA 17404 <br>(717) 848-1764 <br><a href="http://convenience-stores.cmac.ws/a-b-african-caribbean-food-market/60577/">More Info</a></p>
]]>
</description>
<Point>
<coordinates>-76.733673,39.978493</coordinates>
</Point>
</Placemark>
<Placemark>
<name>A Plus Mini Market</name>
<description>
<![CDATA[
<p>260 N Sherman St <br>York, PA 17403 <br>(717) 843-4283 <br><a href="http://convenience-stores.cmac.ws/a-plus-mini-market/60570/">More Info</a></p>
]]>
</description>
<Point>
<coordinates>-79.642097,41.914967</coordinates>
</Point>
</Placemark>
<Placemark>
<name>Alices Market</name>
<description>
<![CDATA[
<p>153 S Beaver St <br>York, PA 17401 <br>(717) 650-2027 <br><a href="http://convenience-stores.cmac.ws/alices-market/115226/">More Info</a></p>
]]>
</description>
<Point>
<coordinates>-76.728142,39.959229</coordinates>
</Point>
</Placemark>
<Placemark>
<name>Baum&#039;s Mini Mart</name>
<description>
<![CDATA[
<p>302 S George St <br>York, PA 17401 <br>(717) 650-1834 <br><a href="http://convenience-stores.cmac.ws/baums-mini-mart/127826/">More Info</a></p>
]]>
</description>
<Point>
<coordinates>-76.725769,39.958031</coordinates>
</Point>
</Placemark>
<Placemark>
<name>Browns Family Store</name>
<description>
<![CDATA[
<p>747 E Market St <br>York, PA 17403 <br>(717) 650-6836 <br><a href="http://convenience-stores.cmac.ws/browns-family-store/90630/">More Info</a></p>
]]>
</description>
<Point>
<coordinates>-76.712219,39.968140</coordinates>
</Point>
</Placemark>
<Placemark>
<name>Cabin Creek Deli &amp; More</name>
<description>
<![CDATA[
<p>5188 E Prospect Rd <br>York, PA 17406 <br>(717) 252-1778 <br><a href="http://convenience-stores.cmac.ws/cabin-creek-deli-more/60188/">More Info</a></p>
]]>
</description>
<Point>
<coordinates>-76.546059,39.966370</coordinates>
</Point>
</Placemark>
<Placemark>
<name>Choice Cigarette Discount Outlet</name>
<description>
<![CDATA[
<p>3402 E Market St <br>York, PA 17402 <br>(717) 755-4090 <br><a href="http://convenience-stores.cmac.ws/choice-cigarette-discount-outlet/60506/">More Info</a></p>
]]>
</description>
<Point>
<coordinates>-76.658447,39.979095</coordinates>
</Point>
</Placemark>
<Placemark>
<name>Downtown Express</name>
<description>
<![CDATA[
<p>49 W Market St <br>York, PA 17401 <br>(717) 845-3303 <br><a href="http://convenience-stores.cmac.ws/downtown-express/60569/">More Info</a></p>
]]>
</description>
<Point>
<coordinates>-76.729477,39.962189</coordinates>
</Point>
</Placemark>
<Placemark>
<name>Forry&#039;s East York Exxon</name>
<description>
<![CDATA[
<p>3607 E Market St <br>York, PA 17402 <br>(717) 755-9501 <br><a href="http://convenience-stores.cmac.ws/forrys-east-york-exxon/60509/">More Info</a></p>
]]>
</description>
<Point>
<coordinates>-76.651321,39.983250</coordinates>
</Point>
</Placemark>
<Placemark>
<name>Gloria&#039;s Grocery &amp; Lotter</name>
<description>
<![CDATA[
<p>252 N George St <br>York, PA 17401 <br>(717) 846-3463 <br><a href="http://convenience-stores.cmac.ws/glorias-grocery-lotter/60573/">More Info</a></p>
]]>
</description>
<Point>
<coordinates>-76.730064,39.966209</coordinates>
</Point>
</Placemark>
<Placemark>
<name>Horizonte 2 Deli &amp; Mini Mart</name>
<description>
<![CDATA[
<p>1000 E Princess St Fl 1 <br>York, PA 17403 <br>(717) 968-0745 <br><a href="http://convenience-stores.cmac.ws/horizonte-2-deli-mini-mart/120523/">More Info</a></p>
]]>
</description>
<Point>
<coordinates>-76.705147,39.965939</coordinates>
</Point>
</Placemark>
<Placemark>
<name>Kombie Mart</name>
<description>
<![CDATA[
<p>320 E Philadelphia St <br>York, PA 17403 <br>(717) 846-8514 <br><a href="http://convenience-stores.cmac.ws/kombie-mart/103370/">More Info</a></p>
]]>
</description>
<Point>
<coordinates>-76.721489,39.965931</coordinates>
</Point>
</Placemark>
<Placemark>
<name>Kwick Stop Inc</name>
<description>
<![CDATA[
<p>19 W Market <br>York, PA 17401 <br>(717) 812-9530 <br><a href="http://convenience-stores.cmac.ws/kwick-stop-inc/60560/">More Info</a></p>
]]>
</description>
<Point>
<coordinates>-76.728691,39.962200</coordinates>
</Point>
</Placemark>
<Placemark>
<name>Leaders Heights Mobil</name>
<description>
<![CDATA[
<p>160 Leaders Heights Rd <br>York, PA 17402 <br>(717) 741-2699 <br><a href="http://convenience-stores.cmac.ws/leaders-heights-mobil/60495/">More Info</a></p>
]]>
</description>
<Point>
<coordinates>-76.701485,39.910427</coordinates>
</Point>
</Placemark>
<Placemark>
<name>Market Street Exxon</name>
<description>
<![CDATA[
<p>1000 W Market St <br>York, PA 17404 <br>(717) 852-0436 <br><a href="http://convenience-stores.cmac.ws/market-street-exxon/60583/">More Info</a></p>
]]>
</description>
<Point>
<coordinates>-76.750031,39.955463</coordinates>
</Point>
</Placemark>
<Placemark>
<name>MT Rose EXON</name>
<description>
<![CDATA[
<p>2350 Mt Rose Ave <br>York, PA 17402 <br>(717) 600-0827 <br><a href="http://convenience-stores.cmac.ws/mt-rose-exon/60397/">More Info</a></p>
]]>
</description>
<Point>
<coordinates>-76.683098,39.958206</coordinates>
</Point>
</Placemark>
<Placemark>
<name>P &amp; P Variety Store</name>
<description>
<![CDATA[
<p>350 E Prospect St <br>York, PA 17403 <br>(717) 852-9426 <br><a href="http://convenience-stores.cmac.ws/p-p-variety-store/60584/">More Info</a></p>
]]>
</description>
<Point>
<coordinates>-76.718361,39.960735</coordinates>
</Point>
</Placemark>
<Placemark>
<name>Philly Express</name>
<description>
<![CDATA[
<p>140 W Philadelphia St <br>York, PA 17401 <br>(717) 845-7002 <br><a href="http://convenience-stores.cmac.ws/philly-express/60572/">More Info</a></p>
]]>
</description>
<Point>
<coordinates>-76.731491,39.962666</coordinates>
</Point>
</Placemark>
<Placemark>
<name>Quik Trip</name>
<description>
<![CDATA[
<p>3655 Board Rd <br>York, PA 17406 <br>(717) 854-1120 <br><a href="http://convenience-stores.cmac.ws/quik-trip/125353/">More Info</a></p>
]]>
</description>
<Point>
<coordinates>-76.740601,40.033901</coordinates>
</Point>
</Placemark>
<Placemark>
<name>Rite Aid</name>
<description>
<![CDATA[
<p>115 Leaders Heights Rd <br>York, PA 17403 <br>(717) 741-0823 <br><a href="http://convenience-stores.cmac.ws/rite-aid/82171/">More Info</a></p>
]]>
</description>
<Point>
<coordinates>-76.706146,39.910278</coordinates>
</Point>
</Placemark>
<Placemark>
<name>Rod West End Lottery</name>
<description>
<![CDATA[
<p>1919 W Market St <br>York, PA 17404 <br>(717) 668-8316 <br><a href="http://convenience-stores.cmac.ws/rod-west-end-lottery/124925/">More Info</a></p>
]]>
</description>
<Point>
<coordinates>-76.769699,39.952991</coordinates>
</Point>
</Placemark>
<Placemark>
<name>Rod&#039;s Corner Store</name>
<description>
<![CDATA[
<p>161 E Philadelphia St <br>York, PA 17401 <br>(717) 718-3100 <br><a href="http://convenience-stores.cmac.ws/rods-corner-store/110121/">More Info</a></p>
]]>
</description>
<Point>
<coordinates>-76.724701,39.965149</coordinates>
</Point>
</Placemark>
<Placemark>
<name>Royal Farms</name>
<description>
<![CDATA[
<p>2605 S Queen St <br>York, PA 17402 <br>(717) 741-4682 <br><a href="http://convenience-stores.cmac.ws/royal-farms/60498/">More Info</a></p>
]]>
</description>
<Point>
<coordinates>-76.682205,39.911282</coordinates>
</Point>
</Placemark>
<Placemark>
<name>Rutter&#039;s Dairy Inc</name>
<description>
<![CDATA[
<p>2100 N George St <br>York, PA 17404 <br>(717) 815-2800 <br><a href="http://convenience-stores.cmac.ws/rutters-dairy-inc/60561/">More Info</a></p>
]]>
</description>
<Point>
<coordinates>-76.735306,39.990669</coordinates>
</Point>
</Placemark>
<Placemark>
<name>Rutter&#039;s Famous Express Deli</name>
<description>
<![CDATA[
<p>129 Leaders Heights Rd <br>York, PA 17403 <br>(717) 741-5647 <br><a href="http://convenience-stores.cmac.ws/rutters-famous-express-deli/60499/">More Info</a></p>
]]>
</description>
<Point>
<coordinates>-76.702530,39.910469</coordinates>
</Point>
</Placemark>
<Placemark>
<name>Rutter&#039;s Famous Express Deli</name>
<description>
<![CDATA[
<p>1099 Haines Rd <br>York, PA 17402 <br>(717) 757-2328 <br><a href="http://convenience-stores.cmac.ws/rutters-famous-express-deli/60513/">More Info</a></p>
]]>
</description>
<Point>
<coordinates>-76.681847,39.958591</coordinates>
</Point>
</Placemark>
<Placemark>
<name>Rutter&#039;s Famous Express Deli</name>
<description>
<![CDATA[
<p>2125 N Susquehanna Trail <br>York, PA 17404 <br>(717) 848-1508 <br><a href="http://convenience-stores.cmac.ws/rutters-famous-express-deli/60576/">More Info</a></p>
]]>
</description>
<Point>
<coordinates>-76.741760,39.989849</coordinates>
</Point>
</Placemark>
<Placemark>
<name>Rutter&#039;s Famous Express Deli</name>
<description>
<![CDATA[
<p>910 S Richland Ave <br>York, PA 17403 <br>(717) 848-9827 <br><a href="http://convenience-stores.cmac.ws/rutters-famous-express-deli/60581/">More Info</a></p>
]]>
</description>
<Point>
<coordinates>-76.740692,39.943604</coordinates>
</Point>
</Placemark>
<Placemark>
<name>Rutter&#039;s Farm Store</name>
<description>
<![CDATA[
<p>5305 N Susquehanna Trail <br>York, PA 17402 <br>(717) 266-2200 <br><a href="http://convenience-stores.cmac.ws/rutters-farm-store/60206/">More Info</a></p>
]]>
</description>
<Point>
<coordinates>-76.766205,40.079266</coordinates>
</Point>
</Placemark>
<Placemark>
<name>Rutter&#039;s Farm Store</name>
<description>
<![CDATA[
<p>129 Leaders Heights Rd <br>York, PA 17403 <br>(717) 741-4057 <br><a href="http://convenience-stores.cmac.ws/rutters-farm-store/60496/">More Info</a></p>
]]>
</description>
<Point>
<coordinates>-76.705017,39.910725</coordinates>
</Point>
</Placemark>
<Placemark>
<name>Rutter&#039;s Farm Store</name>
<description>
<![CDATA[
<p>725 Arsenal Rd <br>York, PA 17402 <br>(717) 757-1741 <br><a href="http://convenience-stores.cmac.ws/rutters-farm-store/60512/">More Info</a></p>
]]>
</description>
<Point>
<coordinates>-76.713951,39.982784</coordinates>
</Point>
</Placemark>
<Placemark>
<name>Rutter&#039;s Farm Store</name>
<description>
<![CDATA[
<p>509 Greenbriar Rd <br>York, PA 17404 <br>(717) 767-1953 <br><a href="http://convenience-stores.cmac.ws/rutters-farm-store/60533/">More Info</a></p>
]]>
</description>
<Point>
<coordinates>-76.761642,39.982235</coordinates>
</Point>
</Placemark>
<Placemark>
<name>Rutter&#039;s Farm Store</name>
<description>
<![CDATA[
<p>2115 Bannister St <br>York, PA 17404 <br>(717) 792-0831 <br><a href="http://convenience-stores.cmac.ws/rutters-farm-store/60549/">More Info</a></p>
]]>
</description>
<Point>
<coordinates>-76.727745,39.962597</coordinates>
</Point>
</Placemark>
<Placemark>
<name>Rutter&#039;s Farm Store</name>
<description>
<![CDATA[
<p>2251 N George St <br>York, PA 17402 <br>(717) 846-6090 <br><a href="http://convenience-stores.cmac.ws/rutters-farm-store/60575/">More Info</a></p>
]]>
</description>
<Point>
<coordinates>-76.734268,39.991692</coordinates>
</Point>
</Placemark>
<Placemark>
<name>Rutter&#039;s Farm Store</name>
<description>
<![CDATA[
<p>1520 Pennsylvania Ave <br>York, PA 17404 <br>(717) 848-9793 <br><a href="http://convenience-stores.cmac.ws/rutters-farm-store/60580/">More Info</a></p>
]]>
</description>
<Point>
<coordinates>-76.744812,39.981022</coordinates>
</Point>
</Placemark>
<Placemark>
<name>Rutter&#039;s Farm Stores</name>
<description>
<![CDATA[
<p>2509 S George St <br>York, PA 17403 <br>(717) 741-2443 <br><a href="http://convenience-stores.cmac.ws/rutters-farm-stores/60494/">More Info</a></p>
]]>
</description>
<Point>
<coordinates>-76.713799,39.913700</coordinates>
</Point>
</Placemark>
<Placemark>
<name>Rutter&#039;s Farm Stores</name>
<description>
<![CDATA[
<p>1099 Haines Rd <br>York, PA 17402 <br>(717) 757-0567 <br><a href="http://convenience-stores.cmac.ws/rutters-farm-stores/60510/">More Info</a></p>
]]>
</description>
<Point>
<coordinates>-76.681602,39.958874</coordinates>
</Point>
</Placemark>
<Placemark>
<name>Rutter&#039;s Farm Stores</name>
<description>
<![CDATA[
<p>700 W Market St <br>York, PA 17401 <br>(717) 757-6388 <br><a href="http://convenience-stores.cmac.ws/rutters-farm-stores/60515/">More Info</a></p>
]]>
</description>
<Point>
<coordinates>-76.745384,39.956928</coordinates>
</Point>
</Placemark>
<Placemark>
<name>Rutter&#039;s Farm Stores</name>
<description>
<![CDATA[
<p>1590b Kenneth Rd <br>York, PA 17408 <br>(717) 764-2034 <br><a href="http://convenience-stores.cmac.ws/rutters-farm-stores/60525/">More Info</a></p>
]]>
</description>
<Point>
<coordinates>-76.769920,39.976864</coordinates>
</Point>
</Placemark>
<Placemark>
<name>Rutter&#039;s Farm Stores</name>
<description>
<![CDATA[
<p>2345 Carlisle Rd <br>York, PA 17408 <br>(717) 764-3439 <br><a href="http://convenience-stores.cmac.ws/rutters-farm-stores/60528/">More Info</a></p>
]]>
</description>
<Point>
<coordinates>-76.800865,39.979076</coordinates>
</Point>
</Placemark>
<Placemark>
<name>Rutter&#039;s Farm Stores</name>
<description>
<![CDATA[
<p>4425 W Market St <br>York, PA 17408 <br>(717) 793-9558 <br><a href="http://convenience-stores.cmac.ws/rutters-farm-stores/60552/">More Info</a></p>
]]>
</description>
<Point>
<coordinates>-76.821411,39.928970</coordinates>
</Point>
</Placemark>
<Placemark>
<name>Rutter&#039;s Farm Stores</name>
<description>
<![CDATA[
<p>1310 N George St <br>York, PA 17404 <br>(717) 846-5022 <br><a href="http://convenience-stores.cmac.ws/rutters-farm-stores/60574/">More Info</a></p>
]]>
</description>
<Point>
<coordinates>-76.734001,39.980316</coordinates>
</Point>
</Placemark>
<Placemark>
<name>Rutter&#039;s Farm Stores</name>
<description>
<![CDATA[
<p>2125 N Susquehanna Trail <br>York, PA 17404 <br>(717) 848-6276 <br><a href="http://convenience-stores.cmac.ws/rutters-farm-stores/60578/">More Info</a></p>
]]>
</description>
<Point>
<coordinates>-76.742287,39.990738</coordinates>
</Point>
</Placemark>
<Placemark>
<name>Rutter&#039;s Farm Stores</name>
<description>
<![CDATA[
<p>910 S Richland Ave <br>York, PA 17403 <br>(717) 849-7000 <br><a href="http://convenience-stores.cmac.ws/rutters-farm-stores/60582/">More Info</a></p>
]]>
</description>
<Point>
<coordinates>-76.740952,39.943325</coordinates>
</Point>
</Placemark>
<Placemark>
<name>Rutter&#039;s Farm Stores</name>
<description>
<![CDATA[
<p>1425 Seven Valleys Rd <br>York, PA 17408 <br>(717) 792-1050 <br><a href="http://convenience-stores.cmac.ws/rutters-farm-stores/93636/">More Info</a></p>
]]>
</description>
<Point>
<coordinates>-76.786140,39.890430</coordinates>
</Point>
</Placemark>
<Placemark>
<name>Rutter&#039;s Farm Stores</name>
<description>
<![CDATA[
<p>2490 Cape Horn Rd <br>York, PA 17402 <br>(717) 755-5588 <br><a href="http://convenience-stores.cmac.ws/rutters-farm-stores/124410/">More Info</a></p>
]]>
</description>
<Point>
<coordinates>-76.647469,39.945419</coordinates>
</Point>
</Placemark>
<Placemark>
<name>Rutter&#039;s Farm Stores - Office</name>
<description>
<![CDATA[
<p>2500 Eastern <br>York, PA 17402 <br>(717) 755-4899 <br><a href="http://convenience-stores.cmac.ws/rutters-farm-stores-office/60507/">More Info</a></p>
]]>
</description>
<Point>
<coordinates>-76.677200,39.972900</coordinates>
</Point>
</Placemark>
<Placemark>
<name>Rutter&#039;s Farm Stores - Office</name>
<description>
<![CDATA[
<p>2878 E Prospect <br>York, PA 17402 <br>(717) 757-1011 <br><a href="http://convenience-stores.cmac.ws/rutters-farm-stores-office/60511/">More Info</a></p>
]]>
</description>
<Point>
<coordinates>-75.750717,41.962425</coordinates>
</Point>
</Placemark>
<Placemark>
<name>Rutters Farm Store</name>
<description>
<![CDATA[
<p>1450 Mt Zion Rd <br>York, PA 17402 <br>(717) 755-5444 <br><a href="http://convenience-stores.cmac.ws/rutters-farm-store/60508/">More Info</a></p>
]]>
</description>
<Point>
<coordinates>-76.669624,39.989193</coordinates>
</Point>
</Placemark>
<Placemark>
<name>Sheetz</name>
<description>
<![CDATA[
<p>1795 Yorktowne Dr <br>York, PA 17408 <br>(570) 696-4836 <br><a href="http://convenience-stores.cmac.ws/sheetz/79667/">More Info</a></p>
]]>
</description>
<Point>
<coordinates>-76.778618,39.976910</coordinates>
</Point>
</Placemark>
<Placemark>
<name>Sheetz</name>
<description>
<![CDATA[
<p>215 Arsenal Rd <br>York, PA 17402 <br>(717) 845-5313 <br><a href="http://convenience-stores.cmac.ws/sheetz/94123/">More Info</a></p>
]]>
</description>
<Point>
<coordinates>-76.727814,39.983940</coordinates>
</Point>
</Placemark>
<Placemark>
<name>Sheetz</name>
<description>
<![CDATA[
<p>3998 E Market St <br>York, PA 17402 <br>(717) 840-3838 <br><a href="http://convenience-stores.cmac.ws/sheetz/107104/">More Info</a></p>
]]>
</description>
<Point>
<coordinates>-76.636703,39.992050</coordinates>
</Point>
</Placemark>
<Placemark>
<name>Sheetz</name>
<description>
<![CDATA[
<p>160 Leaders Heights Rd <br>York, PA 17402 <br>(717) 747-0615 <br><a href="http://convenience-stores.cmac.ws/sheetz/112806/">More Info</a></p>
]]>
</description>
<Point>
<coordinates>-76.701309,39.910511</coordinates>
</Point>
</Placemark>
<Placemark>
<name>Sheetz Convenience Stores</name>
<description>
<![CDATA[
<p>2721 S Queen St <br>York, PA 17403 <br>(717) 741-5774 <br><a href="http://convenience-stores.cmac.ws/sheetz-convenience-stores/60500/">More Info</a></p>
]]>
</description>
<Point>
<coordinates>-76.680290,39.908009</coordinates>
</Point>
</Placemark>
<Placemark>
<name>Sheetz Convenience Stores</name>
<description>
<![CDATA[
<p>405 Memory Ln <br>York, PA 17402 <br>(717) 751-7704 <br><a href="http://convenience-stores.cmac.ws/sheetz-convenience-stores/60504/">More Info</a></p>
]]>
</description>
<Point>
<coordinates>-76.681847,39.979084</coordinates>
</Point>
</Placemark>
<Placemark>
<name>Sheetz Convenience Stores</name>
<description>
<![CDATA[
<p>1484 Carlisle Rd <br>York, PA 17408 <br>(717) 764-3282 <br><a href="http://convenience-stores.cmac.ws/sheetz-convenience-stores/60526/">More Info</a></p>
]]>
</description>
<Point>
<coordinates>-76.777328,39.967007</coordinates>
</Point>
</Placemark>
<Placemark>
<name>Sheetz Convenience Stores</name>
<description>
<![CDATA[
<p>4025 W Market St <br>York, PA 17408 <br>(717) 792-5834 <br><a href="http://convenience-stores.cmac.ws/sheetz-convenience-stores/60550/">More Info</a></p>
]]>
</description>
<Point>
<coordinates>-76.808800,39.933182</coordinates>
</Point>
</Placemark>
<Placemark>
<name>Sheetz Inc</name>
<description>
<![CDATA[
<p>4338 Webster Dr <br>York, PA 17402 <br>(717) 755-2803 <br><a href="http://convenience-stores.cmac.ws/sheetz-inc/60505/">More Info</a></p>
]]>
</description>
<Point>
<coordinates>-76.619911,39.982601</coordinates>
</Point>
</Placemark>
<Placemark>
<name>Sheetz Inc</name>
<description>
<![CDATA[
<p>2068 S Queen <br>York, PA 17403 <br>(717) 848-9253 <br><a href="http://convenience-stores.cmac.ws/sheetz-inc/60579/">More Info</a></p>
]]>
</description>
<Point>
<coordinates>-76.692909,39.936932</coordinates>
</Point>
</Placemark>
<Placemark>
<name>Subway</name>
<description>
<![CDATA[
<p>2801 E Market St <br>York, PA 17402 <br>(717) 840-0446 <br><a href="http://convenience-stores.cmac.ws/subway/60566/">More Info</a></p>
]]>
</description>
<Point>
<coordinates>-76.672623,39.975353</coordinates>
</Point>
</Placemark>
<Placemark>
<name>Sun&#039;s Deli Market</name>
<description>
<![CDATA[
<p>151 E Princess St <br>York, PA 17401 <br>(717) 812-1060 <br><a href="http://convenience-stores.cmac.ws/suns-deli-market/98697/">More Info</a></p>
]]>
</description>
<Point>
<coordinates>-76.722809,39.960949</coordinates>
</Point>
</Placemark>
<Placemark>
<name>Sunrise Mini Market Inc</name>
<description>
<![CDATA[
<p>1000 S George St <br>York, PA 17403 <br>(717) 699-2472 <br><a href="http://convenience-stores.cmac.ws/sunrise-mini-market-inc/60471/">More Info</a></p>
]]>
</description>
<Point>
<coordinates>-76.720703,39.946232</coordinates>
</Point>
</Placemark>
<Placemark>
<name>Tom&#039;s East Market Street Mobil</name>
<description>
<![CDATA[
<p>2335 E Market St <br>York, PA 17402 <br>(717) 840-6833 <br><a href="http://convenience-stores.cmac.ws/toms-east-market-street-mobil/60568/">More Info</a></p>
]]>
</description>
<Point>
<coordinates>-76.680687,39.974422</coordinates>
</Point>
</Placemark>
<Placemark>
<name>Tom&#039;s Hill Street Mobil</name>
<description>
<![CDATA[
<p>1300 Mt Rose Ave <br>York, PA 17403 <br>(717) 845-5292 <br><a href="http://convenience-stores.cmac.ws/toms-hill-street-mobil/60571/">More Info</a></p>
]]>
</description>
<Point>
<coordinates>-76.698639,39.958935</coordinates>
</Point>
</Placemark>
<Placemark>
<name>Tom&#039;s Longstown Mobil</name>
<description>
<![CDATA[
<p>2905 E Prospect Rd <br>York, PA 17402 <br>(717) 757-4290 <br><a href="http://convenience-stores.cmac.ws/toms-longstown-mobil/60514/">More Info</a></p>
]]>
</description>
<Point>
<coordinates>-76.659401,39.959438</coordinates>
</Point>
</Placemark>
<Placemark>
<name>Tom&#039;s Penvale Mobil</name>
<description>
<![CDATA[
<p>3167 N Susquehanna Trail <br>York, PA 17402 <br>(717) 764-3329 <br><a href="http://convenience-stores.cmac.ws/toms-penvale-mobil/60527/">More Info</a></p>
]]>
</description>
<Point>
<coordinates>-76.746979,40.018906</coordinates>
</Point>
</Placemark>
<Placemark>
<name>Tom&#039;s S Queen St Mobil</name>
<description>
<![CDATA[
<p>2161 S Queen St <br>York, PA 17402 <br>(717) 741-4101 <br><a href="http://convenience-stores.cmac.ws/toms-s-queen-st-mobil/60497/">More Info</a></p>
]]>
</description>
<Point>
<coordinates>-76.687500,39.931168</coordinates>
</Point>
</Placemark>
<Placemark>
<name>Tom&#039;s South George Street Exxon</name>
<description>
<![CDATA[
<p>980 S George St <br>York, PA 17403 <br>(717) 854-5846 <br><a href="http://convenience-stores.cmac.ws/toms-south-george-street-exxon/60587/">More Info</a></p>
]]>
</description>
<Point>
<coordinates>-76.721054,39.947392</coordinates>
</Point>
</Placemark>
<Placemark>
<name>Turkey Hill Mini Market</name>
<description>
<![CDATA[
<p>3730 E Market St <br>York, PA 17402 <br>(717) 840-4552 <br><a href="http://convenience-stores.cmac.ws/turkey-hill-mini-market/60567/">More Info</a></p>
]]>
</description>
<Point>
<coordinates>-76.644508,39.986706</coordinates>
</Point>
</Placemark>
<Placemark>
<name>Turkey Hill Minit Market</name>
<description>
<![CDATA[
<p>4490 E Prospect Rd <br>York, PA 17406 <br>(717) 755-6707 <br><a href="http://convenience-stores.cmac.ws/turkey-hill-minit-market/101535/">More Info</a></p>
]]>
</description>
<Point>
<coordinates>-76.590042,39.968472</coordinates>
</Point>
</Placemark>
<Placemark>
<name>Turkey Hill Minute Market</name>
<description>
<![CDATA[
<p>1401 E Market St <br>York, PA 17403 <br>(717) 812-0212 <br><a href="http://convenience-stores.cmac.ws/turkey-hill-minute-market/60559/">More Info</a></p>
]]>
</description>
<Point>
<coordinates>-76.703087,39.971500</coordinates>
</Point>
</Placemark>
<Placemark>
<name>Turkey Hill Minute Market Inc - Store No 11</name>
<description>
<![CDATA[
<p>1401 E Market <br>York, PA 17403 <br>(717) 854-1447 <br><a href="http://convenience-stores.cmac.ws/turkey-hill-minute-market-inc-store-no-11/60585/">More Info</a></p>
]]>
</description>
<Point>
<coordinates>-76.701675,39.972202</coordinates>
</Point>
</Placemark>
<Placemark>
<name>Turkey Hill Minute Market Inc - Store No 4</name>
<description>
<![CDATA[
<p>1680 S Queen <br>York, PA 17403 <br>(717) 854-3653 <br><a href="http://convenience-stores.cmac.ws/turkey-hill-minute-market-inc-store-no-4/60586/">More Info</a></p>
]]>
</description>
<Point>
<coordinates>-76.705826,39.943077</coordinates>
</Point>
</Placemark>
<Placemark>
<name>W Market St Convenience Store</name>
<description>
<![CDATA[
<p>272 W Market St <br>York, PA 17401 <br>(717) 430-8158 <br><a href="http://convenience-stores.cmac.ws/w-market-st-convenience-store/96543/">More Info</a></p>
]]>
</description>
<Point>
<coordinates>-76.733810,39.960121</coordinates>
</Point>
</Placemark>
<Placemark>
<name>Walgreens</name>
<description>
<![CDATA[
<p>2101 S Queen St <br>York, PA 17403 <br>(717) 843-0197 <br><a href="http://convenience-stores.cmac.ws/walgreens/111205/">More Info</a></p>
]]>
</description>
<Point>
<coordinates>-76.691254,39.935478</coordinates>
</Point>
</Placemark>
<Placemark>
<name>Walgreens</name>
<description>
<![CDATA[
<p>2350 E Market St <br>York, PA 17402 <br>(717) 840-3846 <br><a href="http://convenience-stores.cmac.ws/walgreens/115080/">More Info</a></p>
]]>
</description>
<Point>
<coordinates>-76.680496,39.974098</coordinates>
</Point>
</Placemark>
<Placemark>
<name>York City Mart</name>
<description>
<![CDATA[
<p>428 N George St <br>York, PA 17401 <br>(717) 843-0700 <br><a href="http://convenience-stores.cmac.ws/york-city-mart/115220/">More Info</a></p>
]]>
</description>
<Point>
<coordinates>-76.731491,39.969181</coordinates>
</Point>
</Placemark>
</Document>
</kml>
